     2.11           OBSERVATION DATA    G (GPS)             RINEX VERSION / TYPE
pyNEX                                   20160928 135909 UTC PGM / RUN BY / DATE
                                                            MARKER NAME
                                                            OBSERVER / AGENCY
                                                            REC # / TYPE / VERS
                                                            ANT # / TYPE
   808673.9171 -4086658.5368  4115497.9775                  APPROX POSITION XYZ
        0.0000        0.0000        0.0000                  ANTENNA: DELTA H/E/N
     1     0                                                WAVELENGTH FACT L1/2
     3    C1    L1    S1                                    # / TYPES OF OBSERV
  2016    09    28    13    59   25.6000000     GPS         TIME OF FIRST OBS
                                                            END OF HEADER
 16 09 28 13 59 25.6000000  0  9G14G22G28G32G 8G11G17G 1G 3         
  24669057.830      163269.055          44.750  
  23537296.680      285224.551          49.000  
  26434244.150     -154638.418          42.750  
  25320581.490     -167159.121          47.750  
  25851246.450     -463877.867          44.500  
  23094296.500      -97100.281          50.250  
  26688493.840      107832.836          40.750  
  22980000.000      128310.617          48.250  
  24529422.300      503888.492          50.500  
 16 09 28 13 59 25.8000000  0  9G14G22G28G32G 8G11G17G 1G 3         
  24669048.840      163462.801          50.000  
  23537252.850      285597.066          51.250  
  26434311.020     -154844.172          36.500  
  25320653.280     -167384.777          47.000  
  25851387.350     -464476.254          44.500  
  23094350.980      -97238.305          52.000  
  26688385.840      108547.102          39.250  
  22980000.000      128464.871          49.000  
  24529331.940      504510.031          51.500  
 16 09 28 13 59 26.0000000  0  9G14G22G28G32G 8G11G17G 1G 3         
  24669043.390      163656.547          46.750  
  23537212.670      285969.570          48.750  
  26434377.890     -155049.918          44.000  
  25320726.910     -167610.469          48.750  
  25851529.760     -465074.684          42.500  
  23094407.710      -97376.305          49.000  
  26688276.650      109261.375          40.500  
  22980000.000      128619.145          51.500  
  24529242.320      505131.547          46.250  
 16 09 28 13 59 26.2000000  0  9G14G22G28G32G 8G11G17G 1G 3         
  24669037.640      163850.191          47.250  
  23537173.380      286342.023          49.500  
  26434447.480     -155255.766          43.500  
  25320800.790     -167836.203          46.750  
  25851676.100     -465673.160          45.250  
  23094463.870      -97514.391          52.750  
  26688168.130      109975.520          42.500  
  22980000.000      128773.324          54.250  
  24529156.360      505753.008          47.750  
 16 09 28 13 59 26.4000000  0  9G14G22G28G32G 8G11G17G 1G 3         
  24669032.120      164043.898          41.750  
  23537132.720      286714.484          44.000  
  26434515.040     -155461.559          43.250  
  25320875.360     -168061.906          47.250  
  25851820.640     -466271.559          45.750  
  23094521.080      -97652.465          50.000  
  26688058.680      110689.766          44.500  
  22980000.000      128927.551          50.500  
  24529069.300      506374.535          51.000  
 16 09 28 13 59 26.6000000  0  9G14G22G28G32G 8G11G17G 1G 3         
  24669025.190      164237.531          47.750  
  23537091.270      287086.934          50.750  
  26434584.500     -155667.379          46.000  
  25320946.970     -168287.688          45.750  
  25851964.480     -466870.020          44.250  
  23094575.560      -97790.570          50.000  
  26687949.980      111403.977          39.500  
  22980000.000      129081.738          46.500  
  24528981.530      506996.000          48.500  
 16 09 28 13 59 26.8000000  0  9G14G22G28G32G 8G11G17G 1G 3         
  24669016.990      164431.000          43.000  
  23537047.890      287459.207          48.250  
  26434650.580     -155873.383          39.250  
  25321019.320     -168513.602          45.500  
  25852107.050     -467468.648          44.000  
  23094630.590      -97928.848          50.000  
  26687843.960      112117.980          44.250  
  22980000.000      129235.762          50.250  
  24528891.410      507617.309          49.250  
 16 09 28 13 59 27.0000000  0  9G14G22G28G32G 8G11G17G 1G 3         
  24669007.640      164624.348          49.750  
  23537004.810      287831.355          51.000  
  26434718.410     -156079.465          42.750  
  25321090.200     -168739.660          46.500  
  25852252.530     -468067.332          45.250  
  23094684.310      -98067.230          49.500  
  26687739.740      112831.922          39.250  
  22980000.000      129389.668          50.750  
  24528799.620      508238.480          48.500  
 16 09 28 13 59 27.2000000  0  9G14G22G28G32G 8G11G17G 1G 3         
  24668994.970      164817.656          45.750  
  23536963.680      288203.480          45.500  
  26434786.620     -156285.684          43.500  
  25321163.210     -168965.766          48.750  
  25852394.280     -468666.059          39.750  
  23094738.290      -98205.703          47.750  
  26687633.790      113545.801          37.500  
  22980000.000      129543.535          52.500  
  24528710.540      508859.652          45.750  
 16 09 28 13 59 27.4000000  0  9G14G22G28G32G 8G11G17G 1G 3         
  24668987.570      165010.750          47.500  
  23536920.820      288575.414          48.750  
  26434852.930     -156491.996          41.500  
  25321234.730     -169192.051          44.500  
  25852534.860     -469264.980          41.500  
  23094793.500      -98344.312          46.250  
  26687527.860      114259.488          43.500  
  22980000.000      129697.188          52.000  
  24528617.930      509480.641          44.500  
 16 09 28 13 59 27.6000000  0  9G14G22G28G32G 8G11G17G 1G 3         
  24668983.380      165203.906          40.000  
  23536881.700      288947.418          48.250  
  26434923.240     -156698.312          46.000  
  25321308.050     -169418.301          39.750  
  25852678.960     -469863.824          47.000  
  23094850.200      -98482.895          47.750  
  26687424.660      114973.246          40.750  
  22980000.000      129850.930          51.500  
  24528530.960      510101.680          49.000  
 16 09 28 13 59 27.8000000  0  9G14G22G28G32G 8G11G17G 1G 3         
  24668977.680      165397.016          46.750  
  23536840.340      289319.359          43.000  
  26434987.400     -156904.625          44.000  
  25321379.390     -169644.574          48.000  
  25852820.170     -470462.754          42.750  
  23094906.840      -98621.520          53.750  
  26687316.630      115687.008          37.250  
  22980000.000      130004.613          50.500  
  24528440.150      510722.691          46.000  
 16 09 28 13 59 28.0000000  0  9G14G22G28G32G 8G11G17G 1G 3         
  24668972.970      165590.027          43.750  
  23536799.650      289691.219          48.000  
  26435053.230     -157111.031          42.000  
  25321449.760     -169870.922          47.500  
  25852966.170     -471061.711          40.750  
  23094963.240      -98760.234          48.750  
  26687209.340      116400.703          40.000  
  22980000.000      130158.242          48.000  
  24528350.350      511343.637          45.250  
 16 09 28 13 59 28.2000000  0  9G14G22G28G32G 8G11G17G 1G 3         
  24668966.180      165782.957          41.500  
  23536756.750      290063.008          46.750  
  26435122.000     -157317.520          44.000  
  25321520.390     -170097.371          47.000  
  25853109.560     -471660.793          44.250  
  23095020.740      -98899.051          46.500  
  26687102.440      117114.305          40.250  
  22980000.000      130311.762          50.250  
  24528262.820      511964.449          48.750  
 16 09 28 13 59 28.4000000  0  9G14G22G28G32G 8G11G17G 1G 3         
  24668958.670      165975.812          48.250  
  23536715.920      290434.711          48.750  
  26435194.700     -157524.145          41.750  
  25321593.120     -170323.934          50.000  
  25853254.030     -472259.891          43.000  
  23095076.730      -99037.957          50.750  
  26686993.240      117827.785          39.750  
  22980000.000      130465.195          47.250  
  24528176.130      512585.199          49.500  
 16 09 28 13 59 28.6000000  0  9G14G22G28G32G 8G11G17G 1G 3         
  24668951.480      166168.473          47.500  
  23536674.000      290806.242          46.500  
  26435264.620     -157730.832          47.500  
  25321662.050     -170550.652          46.000  
  25853397.090     -472859.180          45.500  
  23095133.760      -99177.039          44.750  
  26686884.460      118541.156          38.500  
  22980000.000      130618.461          50.000  
  24528088.560      513205.809          44.500  
 16 09 28 13 59 28.8000000  0  9G14G22G28G32G 8G11G17G 1G 3         
  24668942.720      166361.070          47.000  
  23536632.490      291177.730          46.000  
  26435335.540     -157937.625          42.250  
  25321734.050     -170777.438          46.000  
  25853539.380     -473458.531          47.500  
  23095188.640      -99316.168          49.500  
  26686770.140      119254.477          39.500  
  22980000.000      130771.668          46.500  
  24527999.810      513826.340          48.250  
 16 09 28 13 59 29.0000000  0  9G14G22G28G32G 8G11G17G 1G 3         
  24668936.880      166552.996          46.000  
  23536592.340      291548.512          49.500  
  26435405.860     -158145.172          42.000  
  25321807.510     -171004.918          44.250  
  25853684.600     -474058.500          49.250  
  23095244.260      -99455.980          48.500  
  26686666.540      119967.105          39.750  
  22980000.000      130924.188          46.750  
  24527912.050      514446.195          49.750  
 16 09 28 13 59 29.2000000  0  9G14G22G28G32G 8G11G17G 1G 3         
  24668927.630      166744.844          47.750  
  23536549.440      291919.246          46.500  
  26435474.700     -158352.719          44.250  
  25321881.270     -171232.453          42.500  
  25853827.220     -474658.559          47.000  
  23095299.870      -99595.859          45.000  
  26686562.570      120679.621          38.500  
  22980000.000      131076.629          48.500  
  24527822.850      515066.016          49.750  
 16 09 28 13 59 29.4000000  0  9G14G22G28G32G 8G11G17G 1G 3         
  24668918.990      166936.648          41.500  
  23536507.420      292289.938          46.000  
  26435541.680     -158560.344          41.000  
  25321953.950     -171460.008          42.750  
  25853968.220     -475258.664          43.500  
  23095354.330      -99735.797          43.500  
  26686455.700      121392.172          44.250  
  22980000.000      131229.051          46.750  
  24527731.880      515685.801          48.000  
 16 09 28 13 59 29.6000000  0  9G14G22G28G32G 8G11G17G 1G 3         
  24668915.150      167128.555          43.250  
  23536465.950      292660.797          47.000  
  26435606.690     -158767.805          42.500  
  25322024.850     -171687.449          41.000  
  25854109.420     -475858.598          42.250  
  23095408.430      -99875.609          46.500  
  26686350.710      122104.852          38.500  
  22980000.000      131381.621          47.500  
  24527644.840      516305.711          46.500  
 16 09 28 13 59 29.8000000  0  9G14G22G28G32G 8G11G17G 1G 3         
  24668907.820      167320.191          46.000  
  23536420.490      293031.359          47.750  
  26435673.250     -158975.547          45.000  
  25322099.090     -171915.211          46.000  
  25854248.780     -476458.793          46.750  
  23095461.270     -100015.691          47.500  
  26686239.440      122817.281          46.250  
  22980000.000      131533.906          45.750  
  24527555.550      516925.332          47.750  
 16 09 28 13 59 30.0000000  0  9G14G22G28G32G 8G11G17G 1G 3         
  24668901.590      167511.473          44.000  
  23536380.670      293401.566          44.000  
  26435743.310     -159183.613          43.250  
  25322174.840     -172143.328          42.750  
  25854397.510     -477059.363          43.750  
  23095519.780     -100156.125          45.750  
  26686129.180      123529.309          42.250  
  22980000.000      131685.840          46.750  
  24527467.490      517544.641          52.000  
 16 09 28 13 59 30.2000000  0  9G14G22G28G32G 8G11G17G 1G 3         
  24668892.780      167702.773          46.250  
  23536344.250      293771.809          49.250  
  26435818.100     -159391.664          46.750  
  25322251.380     -172371.395          41.250  
  25854546.060     -477659.832          42.750  
  23095577.520     -100296.547          47.000  
  26686025.380      124241.410          36.250  
  22980000.000      131837.793          52.500  
  24527382.790      518164.000          44.500  
 16 09 28 13 59 30.4000000  0  9G14G22G28G32G 8G11G17G 1G 3         
  24668884.300      167893.559          46.000  
  23536303.990      294141.516          53.000  
  26435888.460     -159600.273          49.250  
  25322323.710     -172599.980          46.250  
  25854693.100     -478260.918          45.250  
  23095637.580     -100437.531          50.250  
  26685917.560      124952.977          38.000  
  22980000.000      131989.215          52.250  
  24527293.640      518782.797          48.750  
 16 09 28 13 59 30.6000000  0  9G14G22G28G32G 8G11G17G 1G 3         
  24668876.220      168084.633          46.250  
  23536262.600      294511.551          49.500  
  26435956.820     -159808.535          44.250  
  25322394.990     -172828.238          46.000  
  25854836.710     -478861.582          42.750  
  23095692.170     -100578.156          49.750  
  26685812.790      125664.965          36.500  
  22980000.000      132140.973          49.500  
  24527203.870      519401.938          44.250  
 16 09 28 13 59 30.8000000  0  9G14G22G28G32G 8G11G17G 1G 3         
  24668868.790      168276.180          46.500  
  23536219.580      294882.062          46.000  
  26436024.030     -160016.336          42.000  
  25322466.150     -173056.094          47.750  
  25854976.720     -479461.840          44.250  
  23095746.070     -100718.332          47.750  
  26685711.420      126377.422          41.000  
  22980000.000      132293.168          54.000  
  24527113.720      520021.512          50.750  
 16 09 28 13 59 31.0000000  0  9G14G22G28G32G 8G11G17G 1G 3         
  24668860.950      168467.148          45.250  
  23536176.480      295251.992          48.750  
  26436089.890     -160224.660          42.000  
  25322538.820     -173284.492          43.500  
  25855119.810     -480062.633          45.250  
  23095800.660     -100859.078          47.750  
  26685604.060      127089.230          36.000  
  22980000.000      132444.836          50.000  
  24527026.190      520640.547          45.500  
 16 09 28 13 59 31.2000000  0  9G14G22G28G32G 8G11G17G 1G 3         
  24668850.640      168655.898          42.000  
  23536133.290      295619.691          44.500  
  26436155.420     -160435.289          42.750  
  25322608.020     -173515.109          48.000  
  25855260.160     -480665.629          42.250  
  23095854.370     -101002.062          51.000  
  26685493.130      127798.891          32.750  
  22980000.000      132594.238          53.000  
  24526936.120      521257.352          49.000  
 16 09 28 13 59 31.4000000  0  9G14G22G28G32G 8G11G17G 1G 3         
  24668843.800      168845.234          43.000  
  23536088.240      295988.016          45.500  
  26436221.060     -160645.277          46.750  
  25322678.800     -173745.121          41.500  
  25855400.720     -481268.012          41.500  
  23095908.850     -101144.422          49.500  
  26685381.900      128509.082          37.250  
  22980000.000      132744.285          48.500  
  24526845.250      521874.793          50.750  
 16 09 28 13 59 31.6000000  0  9G14G22G28G32G 8G11G17G 1G 3         
  24668835.390      169036.285          49.000  
  23536048.030      296358.062          49.000  
  26436290.430     -160853.543          42.500  
  25322750.920     -173973.434          48.750  
  25855542.310     -481868.703          47.750  
  23095964.690     -101285.109          48.500  
  26685275.550      129221.043          35.250  
  22980000.000      132896.012          50.000  
  24526757.670      522493.922          47.750  
 16 09 28 13 59 31.8000000  0  9G14G22G28G32G 8G11G17G 1G 3         
  24668827.480      169227.082          46.500  
  23536009.810      296727.836          44.250  
  26436363.580     -161062.109          46.000  
  25322824.820     -174202.020          46.250  
  25855685.210     -482469.660          42.500  
  23096020.930     -101426.062          48.000  
  26685167.770      129932.684          37.500  
  22980000.000      133047.469          54.750  
  24526669.250      523112.824          52.750  
 16 09 28 13 59 32.0000000  0  9G14G22G28G32G 8G11G17G 1G 3         
  24668816.910      169417.254          45.500  
  23535969.170      297097.027          49.000  
  26436434.360     -161271.219          45.500  
  25322895.270     -174431.191          45.500  
  25855829.440     -483071.125          42.250  
  23096075.710     -101567.559          45.000  
  26685064.330      130643.805          33.500  
  22980000.000      133198.379          48.750  
  24526579.140      523731.117          49.500  
 16 09 28 13 59 32.2000000  0  9G14G22G28G32G 8G11G17G 1G 3         
  24668810.840      169607.969          46.000  
  23535927.240      297466.715          47.500  
  26436499.570     -161479.859          46.250  
  25322967.080     -174659.832          46.750  
  25855974.120     -483672.086          47.250  
  23096134.640     -101708.605          50.000  
  26684954.710      131355.398          34.500  
  22980000.000      133349.770          48.250  
  24526492.060      524349.941          47.000  
 16 09 28 13 59 32.4000000  0  9G14G22G28G32G 8G11G17G 1G 3         
  24668806.840      169798.180          46.500  
  23535885.290      297835.953          44.000  
  26436565.620     -161688.957          40.250  
  25323040.630     -174888.965          46.750  
  25856116.480     -484273.559          46.000  
  23096191.800     -101850.094          50.750  
  26684854.090      132066.578          40.750  
  22980000.000      133500.711          51.750  
  24526405.180      524968.293          47.250  
 16 09 28 13 59 32.6000000  0  9G14G22G28G32G 8G11G17G 1G 3         
  24668798.200      169989.570          42.500  
  23535841.140      298206.359          47.250  
  26436632.490     -161896.832          45.750  
  25323111.040     -175116.918          42.750  
  25856255.750     -484873.805          46.750  
  23096244.380     -101990.402          46.000  
  26684744.540      132778.938          37.250  
  22980000.000      133652.816          46.250  
  24526314.210      525587.836          46.750  
 16 09 28 13 59 32.8000000  0  9G14G22G28G32G 8G11G17G 1G 3         
  24668792.270      170180.574          44.750  
  23535799.890      298576.434          46.500  
  26436700.390     -162105.094          42.500  
  25323183.970     -175345.234          42.000  
  25856400.320     -485474.418          45.500  
  23096298.910     -102131.078          48.500  
  26684634.950      133490.957          36.750  
  22980000.000      133804.578          51.250  
  24526224.270      526207.000          48.750  
 16 09 28 13 59 33.0000000  0  9G14G22G28G32G 8G11G17G 1G 3         
  24668782.170      170372.434          45.000  
  23535756.520      298947.309          46.500  
  26436767.540     -162312.562          42.500  
  25323256.600     -175572.730          43.000  
  25856540.870     -486074.133          42.500  
  23096354.630     -102270.969          47.750  
  26684523.600      134203.773          32.250  
  22980000.000      133957.152          49.000  
  24526133.250      526827.027          48.250  
 16 09 28 13 59 33.2000000  0  9G14G22G28G32G 8G11G17G 1G 3         
  24668773.140      170564.582          42.750  
  23535715.670      299318.492          47.000  
  26436836.200     -162519.691          42.250  
  25323328.890     -175799.965          41.000  
  25856685.370     -486673.664          47.500  
  23096409.650     -102410.527          49.250  
  26684416.310      134916.883          34.500  
  22980000.000      134110.031          52.000  
  24526042.350      527447.324          49.250  
 16 09 28 13 59 33.4000000  0  9G14G22G28G32G 8G11G17G 1G 3         
  24668767.540      170756.238          45.250  
  23535676.040      299689.215          46.000  
  26436903.400     -162727.266          42.500  
  25323400.960     -176027.629          49.000  
  25856828.270     -487273.578          44.750  
  23096466.230     -102550.562          45.250  
  26684314.820      135629.613          40.000  
  22980000.000      134262.449          52.000  
  24525953.830      528067.215          53.250  
 16 09 28 13 59 33.6000000  0  9G14G22G28G32G 8G11G17G 1G 3         
  24668759.690      170947.656          49.000  
  23535635.310      300059.703          50.250  
  26436973.340     -162935.113          43.250  
  25323473.070     -176255.566          49.750  
  25856970.770     -487873.688          47.250  
  23096521.840     -102690.844          48.000  
  26684212.220      136342.129          40.250  
  22980000.000      134414.617          52.000  
  24525866.990      528686.832          46.500  
 16 09 28 13 59 33.8000000  0  9G14G22G28G32G 8G11G17G 1G 3         
  24668751.770      171138.676          42.500  
  23535593.640      300429.793          48.000  
  26437042.480     -163143.324          49.000  
  25323548.500     -176483.879          49.000  
  25857115.840     -488474.223          40.250  
  23096574.500     -102831.500          50.000  
  26684111.420      137054.219          35.250  
  22980000.000      134566.398          47.750  
  24525778.610      529306.074          49.250  
 16 09 28 13 59 34.0000000  0  9G14G22G28G32G 8G11G17G 1G 3         
  24668746.240      171329.824          49.750  
  23535551.570      300800.012          51.000  
  26437108.200     -163351.434          43.250  
  25323623.450     -176712.062          46.500  
  25857261.610     -489074.672          46.250  
  23096631.810     -102972.109          48.500  
  26684005.800      137766.352          38.000  
  22980000.000      134718.301          48.250  
  24525689.450      529925.426          45.500  
 16 09 28 13 59 34.2000000  0  9G14G22G28G32G 8G11G17G 1G 3         
  24668739.970      171521.066          46.250  
  23535512.030      301170.312          50.250  
  26437179.920     -163559.488          48.500  
  25323696.010     -176940.199          45.250  
  25857407.730     -489674.957          43.750  
  23096687.150     -103112.562          43.500  
  26683898.930      138478.629          38.500  
  22980000.000      134870.293          50.250  
  24525602.290      530544.875          48.500  
 16 09 28 13 59 34.4000000  0  9G14G22G28G32G 8G11G17G 1G 3         
  24668732.050      171712.363          46.500  
  23535469.050      301540.688          46.500  
  26437247.190     -163767.449          46.250  
  25323766.870     -177168.215          42.250  
  25857548.010     -490275.152          44.500  
  23096740.750     -103252.973          48.250  
  26683788.700      139191.102          37.750  
  22980000.000      135022.391          50.500  
  24525513.310      531164.441          50.250  
 16 09 28 13 59 34.6000000  0  9G14G22G28G32G 8G11G17G 1G 3         
  24668722.190      171903.426          51.500  
  23535424.950      301910.898          46.250  
  26437313.660     -163975.566          45.250  
  25323838.560     -177396.473          50.000  
  25857690.870     -490875.539          39.500  
  23096794.920     -103393.609          46.500  
  26683679.390      139903.277          39.000  
  22980000.000      135174.230          47.500  
  24525422.850      531783.773          46.500  
 16 09 28 13 59 34.8000000  0  9G14G22G28G32G 8G11G17G 1G 3         
  24668713.520      172093.699          43.000  
  23535383.700      302280.266          48.750  
  26437381.030     -164184.516          45.500  
  25323909.220     -177625.520          44.000  
  25857834.680     -491476.754          43.750  
  23096851.470     -103535.016          46.500  
  26683571.720      140614.715          35.750  
  22980000.000      135325.301          49.250  
  24525333.070      532402.305          50.000  
 16 09 28 13 59 35.0000000  0  9G14G22G28G32G 8G11G17G 1G 3         
  24668701.950      172283.449          45.500  
  23535342.830      302649.141          51.500  
  26437450.210     -164393.996          44.250  
  25323979.990     -177855.121          45.250  
  25857975.890     -492078.512          40.000  
  23096907.580     -103676.969          48.000  
  26683461.670      141325.547          37.000  
  22980000.000      135475.812          50.500  
  24525242.940      533020.336          49.500  
 16 09 28 13 59 35.2000000  0  9G14G22G28G32G 8G11G17G 1G 3         
  24668694.220      172473.781          45.250  
  23535304.250      303018.613          49.750  
  26437521.590     -164602.852          43.250  
  25324050.750     -178084.090          43.750  
  25858119.290     -492679.605          44.750  
  23096965.140     -103818.332          45.000  
  26683356.320      142037.109          41.750  
  22980000.000      135626.969          52.750  
  24525153.660      533638.965          48.500  
 16 09 28 13 59 35.4000000  0  9G14G22G28G32G 8G11G17G 1G 3         
  24668687.900      172664.879          49.750  
  23535262.840      303388.836          44.000  
  26437590.660     -164810.973          47.750  
  25324121.850     -178312.363          49.500  
  25858260.190     -493279.957          47.500  
  23097020.850     -103958.949          53.000  
  26683252.580      142749.289          40.500  
  22980000.000      135778.871          50.000  
  24525064.560      534258.348          50.750  
 16 09 28 13 59 35.6000000  0  9G14G22G28G32G 8G11G17G 1G 3         
  24668683.140      172856.410          43.750  
  23535221.150      303759.496          46.500  
  26437659.020     -165018.711          42.000  
  25324194.230     -178540.160          48.000  
  25858400.570     -493879.828          46.750  
  23097078.570     -104099.113          46.750  
  26683145.850      143461.977          37.250  
  22980000.000      135931.188          46.500  
  24524977.190      534878.164          51.750  
 16 09 28 13 59 35.8000000  0  9G14G22G28G32G 8G11G17G 1G 3         
  24668680.190      173048.016          45.500  
  23535180.020      304130.238          46.000  
  26437725.240     -165226.285          43.250  
  25324267.730     -178767.848          46.000  
  25858545.320     -494479.625          48.000  
  23097133.750     -104239.184          46.000  
  26683039.090      144174.773          37.000  
  22980000.000      136083.609          45.750  
  24524888.650      535498.113          50.250  
 16 09 28 13 59 36.0000000  0  9G14G22G28G32G 8G11G17G 1G 3         
  24668669.750      173239.602          45.500  
  23535137.600      304500.988          43.000  
  26437792.210     -165433.859          38.750  
  25324337.160     -178995.609          44.500  
  25858685.730     -495079.398          44.000  
  23097187.090     -104379.301          45.250  
  26682932.120      144887.523          37.500  
  22980000.000      136236.035          48.500  
  24524799.390      536118.020          48.250  
 16 09 28 13 59 36.2000000  0  9G14G22G28G32G 8G11G17G 1G 3         
  24668663.220      173431.191          44.000  
  23535098.530      304871.758          43.500  
  26437864.960     -165641.465          44.250  
  25324412.270     -179223.316          39.500  
  25858830.580     -495679.164          42.500  
  23097242.240     -104519.391          51.250  
  26682829.530      145600.375          41.250  
  22980000.000      136388.465          49.250  
  24524712.470      536737.961          48.500  
 16 09 28 13 59 36.4000000  0  9G14G22G28G32G 8G11G17G 1G 3         
  24668654.810      173622.637          45.000  
  23535055.110      305242.363          44.750  
  26437930.350     -165849.207          42.750  
  25324484.690     -179451.203          46.750  
  25858972.150     -496279.102          46.500  
  23097295.810     -104659.613          53.500  
  26682720.240      146313.094          40.750  
  22980000.000      136540.742          50.000  
  24524620.930      537357.770          50.000  
 16 09 28 13 59 36.6000000  0  9G14G22G28G32G 8G11G17G 1G 3         
  24668647.940      173813.582          48.250  
  23535014.160      305612.508          47.000  
  26437999.660     -166057.398          43.000  
  25324555.830     -179679.559          45.000  
  25859112.210     -496879.473          45.000  
  23097353.940     -104800.371          46.000  
  26682613.710      147025.270          43.250  
  22980000.000      136692.527          51.500  
  24524531.390      537977.082          52.500  
 16 09 28 13 59 36.8000000  0  9G14G22G28G32G 8G11G17G 1G 3         
  24668637.540      174004.797          40.250  
  23534970.860      305982.871          47.000  
  26438066.040     -166265.379          41.000  
  25324626.090     -179907.699          44.750  
  25859254.950     -497479.609          47.750  
  23097406.600     -104940.863          48.250  
  26682502.230      147737.723          37.750  
  22980000.000      136844.574          53.750  
  24524440.180      538596.648          46.500  
 16 09 28 13 59 37.0000000  0  9G14G22G28G32G 8G11G17G 1G 3         
  24668629.060      174196.176          43.250  
  23534928.910      306353.488          41.500  
  26438135.180     -166473.152          50.750  
  25324700.090     -180135.625          43.000  
  25859402.320     -498079.547          45.250  
  23097463.840     -105081.156          48.750  
  26682398.950      148450.383          36.500  
  22980000.000      136996.816          49.500  
  24524353.480      539216.414          46.750  
 16 09 28 13 59 37.2000000  0  9G14G22G28G32G 8G11G17G 1G 3         
  24668619.600      174387.605          43.000  
  23534884.780      306724.090          46.500  
  26438201.660     -166680.922          44.000  
  25324773.320     -180363.523          42.750  
  25859547.230     -498679.414          46.750  
  23097517.200     -105221.418          48.000  
  26682292.500      149163.105          38.500  
  22980000.000      137149.078          44.000  
  24524263.210      539836.242          51.250  
 16 09 28 13 59 37.4000000  0  9G14G22G28G32G 8G11G17G 1G 3         
  24668612.370      174579.059          48.500  
  23534847.540      307094.770          48.500  
  26438270.070     -166888.578          42.250  
  25324846.410     -180591.355          43.750  
  25859693.160     -499279.188          43.000  
  23097574.940     -105361.629          45.500  
  26682188.080      149875.855          38.500  
  22980000.000      137301.414          48.750  
  24524176.780      540456.117          50.000  
 16 09 28 13 59 37.6000000  0  9G14G22G28G32G 8G11G17G 1G 3         
  24668604.870      174770.441          47.250  
  23534809.150      307465.355          48.000  
  26438339.240     -167096.359          41.500  
  25324920.330     -180819.285          45.750  
  25859836.670     -499879.078          41.500  
  23097632.280     -105501.941          50.250  
  26682080.450      150588.512          41.500  
  22980000.000      137453.656          50.500  
  24524088.240      541075.906          47.000  
 16 09 28 13 59 37.8000000  0  9G14G22G28G32G 8G11G17G 1G 3         
  24668596.930      174961.883          43.500  
  23534768.650      307836.027          48.000  
  26438407.330     -167304.082          42.000  
  25324993.170     -181047.156          46.250  
  25859980.950     -500478.930          42.250  
  23097691.040     -105642.188          49.000  
  26681975.470      151301.309          38.000  
  22980000.000      137605.969          49.750  
  24523998.020      541695.781          53.000  
 16 09 28 13 59 38.0000000  0  9G14G22G28G32G 8G11G17G 1G 3         
  24668589.550      175153.250          44.750  
  23534726.660      308206.625          47.750  
  26438477.170     -167511.824          46.000  
  25325065.590     -181275.098          44.250  
  25860123.730     -501078.770          49.250  
  23097746.370     -105782.496          48.250  
  26681868.370      152014.016          46.000  
  22980000.000      137758.215          52.000  
  24523908.660      542315.598          49.750  
 16 09 28 13 59 38.2000000  0  9G14G22G28G32G 8G11G17G 1G 3         
  24668582.050      175344.523          47.000  
  23534683.040      308577.160          48.250  
  26438546.550     -167719.648          46.000  
  25325137.260     -181503.121          50.250  
  25860264.310     -501678.676          43.250  
  23097801.710     -105922.887          48.250  
  26681765.960      152726.672          41.500  
  22980000.000      137910.395          47.250  
  24523818.740      542935.340          50.000  
 16 09 28 13 59 38.4000000  0  9G14G22G28G32G 8G11G17G 1G 3         
  24668575.360      175535.664          43.500  
  23534639.010      308947.516          47.750  
  26438612.510     -167927.625          44.500  
  25325207.080     -181731.309          45.500  
  25860407.140     -502278.789          53.500  
  23097856.260     -106063.434          49.000  
  26681659.270      153439.180          43.000  
  22980000.000      138062.410          54.250  
  24523728.660      543554.887          45.000  
 16 09 28 13 59 38.6000000  0  9G14G22G28G32G 8G11G17G 1G 3         
  24668567.960      175726.555          41.000  
  23534595.000      309317.656          44.250  
  26438681.160     -168135.883          46.250  
  25325278.570     -181959.691          45.250  
  25860550.270     -502879.109          45.000  
  23097910.440     -106204.234          48.750  
  26681552.090      154151.430          41.000  
  22980000.000      138214.203          52.000  
  24523639.770      544174.254          49.250  
 16 09 28 13 59 38.8000000  0  9G14G22G28G32G 8G11G17G 1G 3         
  24668560.430      175917.465          44.750  
  23534554.800      309687.816          51.750  
  26438753.810     -168344.066          44.750  
  25325351.530     -182188.109          47.750  
  25860692.010     -503479.402          47.000  
  23097965.430     -106345.035          54.250  
  26681446.710      154863.785          36.250  
  22980000.000      138365.988          51.000  
  24523551.980      544793.641          44.500  
 16 09 28 13 59 39.0000000  0  9G14G22G28G32G 8G11G17G 1G 3         
  24668555.700      176108.574          43.500  
  23534516.580      310058.215          48.250  
  26438824.880     -168552.066          51.000  
  25325427.230     -182416.281          47.500  
  25860837.950     -504079.379          45.500  
  23098021.010     -106485.539          50.750  
  26681340.590      155576.238          40.250  
  22980000.000      138518.016          49.000  
  24523464.310      545413.242          50.000  
 16 09 28 13 59 39.2000000  0  9G14G22G28G32G 8G11G17G 1G 3         
  24668547.340      176299.766          42.250  
  23534473.930      310428.707          49.250  
  26438892.100     -168759.977          41.500  
  25325495.340     -182644.352          45.250  
  25860978.390     -504679.340          43.500  
  23098075.310     -106625.996          47.000  
  26681232.450      156288.871          42.750  
  22980000.000      138670.160          54.250  
  24523372.830      546032.977          45.500  
 16 09 28 13 59 39.4000000  0  9G14G22G28G32G 8G11G17G 1G 3         
  24668539.210      176491.051          45.000  
  23534432.680      310799.293          44.500  
  26438963.050     -168967.754          46.000  
  25325567.020     -182872.363          46.250  
  25861125.630     -505279.180          48.500  
  23098131.060     -106766.395          44.750  
  26681125.900      157001.617          37.750  
  22980000.000      138822.344          47.250  
  24523284.920      546652.770          45.750  
 16 09 28 13 59 39.6000000  0  9G14G22G28G32G 8G11G17G 1G 3         
  24668530.600      176682.125          43.000  
  23534389.510      311169.664          49.000  
  26439031.250     -169175.754          48.250  
  25325641.780     -183100.586          45.000  
  25861269.690     -505879.215          44.500  
  23098190.170     -106907.000          52.250  
  26681016.160      157714.141          36.500  
  22980000.000      138974.363          51.000  
  24523196.010      547272.383          49.500  
 16 09 28 13 59 39.8000000  0  9G14G22G28G32G 8G11G17G 1G 3         
  24668523.240      176872.770          48.250  
  23534347.260      311539.605          46.500  
  26439098.360     -169384.184          45.500  
  25325714.390     -183329.234          45.250  
  25861412.950     -506479.676          41.750  
  23098246.220     -107048.031          46.250  
  26680908.520      158426.262          41.500  
  22980000.000      139125.941          48.250  
  24523106.820      547891.535          44.250  
 16 09 28 13 59 40.0000000  0  9G14G22G28G32G 8G11G17G 1G 3         
  24668518.770      177063.117          49.750  
  23534306.570      311909.270          50.500  
  26439169.650     -169592.895          45.750  
  25325787.630     -183558.184          44.250  
  25861557.540     -507080.387          48.000  
  23098302.810     -107189.332          45.000  
  26680803.300      159138.125          42.250  
  22980000.000      139277.203          49.000  
  24523018.770      548510.449          48.750  
 16 09 28 13 59 40.2000000  0  9G14G22G28G32G 8G11G17G 1G 3         
  24668510.990      177253.266          45.000  
  23534266.750      312278.758          53.250  
  26439238.490     -169801.828          51.000  
  25325860.410     -183787.316          45.750  
  25861700.920     -507681.273          46.500  
  23098358.000     -107330.828          47.500  
  26680701.860      159849.719          42.000  
  22980000.000      139428.344          50.750  
  24522928.590      549129.172          44.750  
 16 09 28 13 59 40.4000000  0  9G14G22G28G32G 8G11G17G 1G 3         
  24668504.360      177443.398          43.750  
  23534225.740      312648.203          48.500  
  26439306.560     -170010.770          46.750  
  25325934.000     -184016.461          47.750  
  25861843.120     -508282.215          45.500  
  23098416.080     -107472.379          47.250  
  26680594.820      160561.371          43.000  
  22980000.000      139579.406          51.250  
  24522838.670      549747.824          47.750  
 16 09 28 13 59 40.6000000  0  9G14G22G28G32G 8G11G17G 1G 3         
  24668498.370      177633.637          46.250  
  23534185.110      313017.762          43.750  
  26439372.990     -170219.594          46.000  
  25326005.230     -184245.527          45.250  
  25861986.300     -508883.023          41.500  
  23098472.550     -107613.832          51.000  
  26680486.820      161273.082          43.000  
  22980000.000      139730.590          45.500  
  24522748.480      550366.617          51.500  
 16 09 28 13 59 40.8000000  0  9G14G22G28G32G 8G11G17G 1G 3         
  24668489.040      177823.836          43.250  
  23534143.230      313387.316          49.500  
  26439439.710     -170428.422          42.250  
  25326074.720     -184474.562          47.750  
  25862129.090     -509483.844          47.000  
  23098527.790     -107755.277          44.000  
  26680380.150      161984.852          39.000  
  22980000.000      139881.773          47.250  
  24522660.950      550985.441          50.500  
 16 09 28 13 59 41.0000000  0  9G14G22G28G32G 8G11G17G 1G 3         
  24668480.730      178013.695          44.000  
  23534100.150      313756.512          52.500  
  26439508.060     -170637.602          45.250  
  25326146.250     -184704.000          40.500  
  25862272.250     -510084.973          42.750  
  23098579.570     -107897.051          44.000  
  26680272.970      162696.285          41.750  
  22980000.000      140032.621          46.250  
  24522571.520      551603.906          51.000  
 16 09 28 13 59 41.2000000  0  9G14G22G28G32G 8G11G17G 1G 3         
  24668468.650      178203.684          42.750  
  23534055.460      314125.844          43.750  
  26439579.200     -170846.656          49.250  
  25326221.390     -184933.273          46.500  
  25862411.990     -510686.004          44.750  
  23098632.340     -108038.738          46.000  
  26680165.980      163407.809          40.250  
  22980000.000      140183.547          52.000  
  24522480.320      552222.504          52.500  
 16 09 28 13 59 41.4000000  0  9G14G22G28G32G 8G11G17G 1G 3         
  24668463.350      178393.949          44.750  
  23534015.640      314495.461          43.250  
  26439649.840     -171055.457          43.250  
  25326293.120     -185162.324          41.500  
  25862553.620     -511286.711          44.000  
  23098688.280     -108180.113          47.750  
  26680060.500      164119.691          40.000  
  22980000.000      140334.789          48.500  
  24522393.020      552841.387          46.000  
 16 09 28 13 59 41.6000000  0  9G14G22G28G32G 8G11G17G 1G 3         
  24668457.490      178584.207          43.750  
  23533975.800      314865.129          51.750  
  26439719.330     -171264.172          45.250  
  25326366.900     -185391.320          47.750  
  25862692.980     -511887.398          44.750  
  23098744.630     -108321.496          46.750  
  26679954.850      164831.574          41.750  
  22980000.000      140486.059          51.500  
  24522305.260      553460.309          48.500  
 16 09 28 13 59 41.8000000  0  9G14G22G28G32G 8G11G17G 1G 3         
  24668451.100      178774.402          47.500  
  23533935.440      315234.672          49.500  
  26439787.160     -171473.043          47.000  
  25326439.580     -185620.418          41.750  
  25862833.850     -512488.203          42.750  
  23098803.460     -108462.988          52.000  
  26679851.080      165543.309          40.250  
  22980000.000      140637.219          53.750  
  24522216.430      554079.086          51.250  
 16 09 28 13 59 42.0000000  0  9G14G22G28G32G 8G11G17G 1G 3         
  24668442.390      178964.406          43.750  
  23533893.030      315604.043          48.000  
  26439856.100     -171682.070          48.750  
  25326512.230     -185849.684          49.000  
  25862977.680     -513089.113          42.750  
  23098860.950     -108604.648          47.250  
  26679743.910      166254.934          41.750  
  22980000.000      140788.211          53.750  
  24522127.550      554697.746          49.750  
 16 09 28 13 59 42.2000000  0  9G14G22G28G32G 8G11G17G 1G 3         
  24668434.490      179152.840          42.750  
  23533850.630      315971.898          47.000  
  26439922.990     -171892.613          39.000  
  25326585.100     -186080.527          43.750  
  25863122.650     -513691.609          47.000  
  23098916.310     -108747.875          49.500  
  26679638.370      166965.004          40.250  
  22980000.000      140937.656          48.000  
  24522038.140      555314.848          45.750  
 16 09 28 13 59 42.4000000  0  9G14G22G28G32G 8G11G17G 1G 3         
  24668423.110      179339.480          47.750  
  23533807.470      316337.922          48.000  
  26439988.580     -172105.008          43.500  
  25326654.520     -186313.152          48.500  
  25863263.370     -514295.832          40.750  
  23098970.940     -108892.879          46.250  
  26679531.230      167673.336          38.750  
  22980000.000      141085.316          48.000  
  24521948.530      555930.156          47.250  
 16 09 28 13 59 42.6000000  0  9G14G22G28G32G 8G11G17G 1G 3         
  24668413.300      179525.863          39.750  
  23533763.830      316703.711          47.250  
  26440055.420     -172317.582          44.250  
  25326724.280     -186546.008          45.500  
  25863408.800     -514900.371          43.750  
  23099026.630     -109038.160          42.750  
  26679426.350      168381.328          43.500  
  22980000.000      141232.711          51.750  
  24521857.950      556545.234          48.000  
 16 09 28 13 59 42.8000000  0  9G14G22G28G32G 8G11G17G 1G 3         
  24668407.540      179711.945          46.250  
  23533722.700      317069.250          48.250  
  26440123.770     -172530.473          48.000  
  25326796.770     -186779.184          45.750  
  25863553.010     -515505.125          43.500  
  23099083.010     -109183.695          47.250  
  26679321.180      169089.148          42.250  
  22980000.000      141379.828          49.500  
  24521769.860      557159.996          48.250  
 16 09 28 13 59 43.0000000  0  9G14G22G28G32G 8G11G17G 1G 3         
  24668404.110      179898.707          43.750  
  23533683.960      317435.426          42.500  
  26440195.840     -172742.680          43.500  
  25326873.260     -187011.664          49.000  
  25863697.950     -516109.195          47.250  
  23099139.350     -109328.582          51.000  
  26679217.930      169797.547          40.250  
  22980000.000      141527.605          49.000  
  24521682.050      557775.477          48.250  
 16 09 28 13 59 43.2000000  0  9G14G22G28G32G 8G11G17G 1G 3         
  24668400.490      180086.598          44.000  
  23533641.440      317802.777          46.000  
  26440267.600     -172953.777          44.500  
  25326947.250     -187243.059          43.500  
  25863845.720     -516712.160          46.250  
  23099192.700     -109472.328          47.500  
  26679112.340      170507.109          40.250  
  22980000.000      141676.535          46.500  
  24521592.370      558392.109          44.500  
 16 09 28 13 59 43.4000000  0  9G14G22G28G32G 8G11G17G 1G 3         
  24668395.640      180276.035          45.000  
  23533603.150      318171.684          51.250  
  26440334.730     -173163.238          45.250  
  25327018.110     -187472.859          49.750  
  25863989.350     -517313.504          42.250  
  23099247.840     -109614.492          49.000  
  26679005.540      171218.305          44.000  
  22980000.000      141827.043          54.500  
  24521505.120      559010.312          47.750  
 16 09 28 13 59 43.6000000  0  9G14G22G28G32G 8G11G17G 1G 3         
  24668388.660      180464.859          40.750  
  23533561.970      318539.906          46.250  
  26440406.060     -173373.426          42.000  
  25327092.000     -187703.316          45.750  
  25864133.700     -517915.520          44.000  
  23099306.370     -109757.367          52.500  
  26678900.020      171928.816          40.500  
  22980000.000      141976.875          48.500  
  24521417.750      559627.820          49.500  
 16 09 28 13 59 43.8000000  0  9G14G22G28G32G 8G11G17G 1G 3         
  24668381.000      180653.547          45.750  
  23533521.050      318908.105          49.500  
  26440476.700     -173583.652          44.250  
  25327164.940     -187933.859          40.000  
  25864276.390     -518517.559          43.500  
  23099363.520     -109900.297          47.500  
  26678794.480      172639.305          44.750  
  22980000.000      142126.641          48.750  
  24521328.840      560245.305          48.000  
 16 09 28 13 59 44.0000000  0  9G14G22G28G32G 8G11G17G 1G 3         
  24668372.050      180842.281          44.750  
  23533479.690      319276.312          42.500  
  26440546.000     -173793.887          46.750  
  25327238.330     -188164.355          40.500  
  25864417.510     -519119.645          46.000  
  23099419.690     -110043.188          52.000  
  26678685.940      173349.801          41.000  
  22980000.000      142276.426          50.000  
  24521237.940      560862.773          48.250  
 16 09 28 13 59 44.2000000  0  9G14G22G28G32G 8G11G17G 1G 3         
  24668361.130      181031.168          44.000  
  23533435.370      319644.676          43.750  
  26440613.130     -174003.945          46.750  
  25327309.110     -188394.730          43.000  
  25864560.570     -519721.527          45.750  
  23099473.350     -110185.934          51.000  
  26678573.960      174060.449          47.500  
  22980000.000      142426.387          46.250  
  24521146.080      561480.449          44.500  
 16 09 28 13 59 44.4000000  0  9G14G22G28G32G 8G11G17G 1G 3         
  24668351.900      181219.754          47.000  
  23533391.040      320012.680          48.500  
  26440680.350     -174214.355          43.500  
  25327379.780     -188625.441          44.250  
  25864702.020     -520323.703          50.250  
  23099526.540     -110329.008          47.250  
  26678463.960      174770.773          45.250  
  22980000.000      142576.012          47.000  
  24521054.360      562097.770          49.500  
 16 09 28 13 59 44.6000000  0  9G14G22G28G32G 8G11G17G 1G 3         
  24668343.010      181407.625          45.000  
  23533347.910      320380.012          48.250  
  26440749.100     -174425.438          43.250  
  25327454.910     -188856.805          47.000  
  25864844.590     -520926.594          40.500  
  23099582.590     -110472.820          48.500  
  26678357.080      175480.398          43.250  
  22980000.000      142724.926          47.500  
  24520964.690      562714.426          48.250  
 16 09 28 13 59 44.8000000  0  9G14G22G28G32G 8G11G17G 1G 3         
  24668337.130      181595.348          41.000  
  23533306.980      320747.277          49.500  
  26440817.120     -174636.586          40.250  
  25327527.710     -189088.312          42.750  
  25864986.150     -521529.562          44.750  
  23099638.940     -110616.691          47.500  
  26678248.240      176189.996          43.500  
  22980000.000      142873.754          46.500  
  24520877.020      563330.949          44.750  
 16 09 28 13 59 45.0000000  0  9G14G22G28G32G 8G11G17G 1G 3         
  24668331.550      181783.652          42.000  
  23533264.910      321115.090          45.250  
  26440882.860     -174847.172          42.000  
  25327597.840     -189319.238          39.500  
  25865127.680     -522131.957          39.000  
  23099695.300     -110760.008          48.750  
  26678140.290      176900.121          38.500  
  22980000.000      143023.172          44.250  
  24520787.830      563948.086          46.000  
 16 09 28 13 59 45.2000000  0  9G14G22G28G32G 8G11G17G 1G 3         
  24668325.510      181972.129          46.500  
  23533221.370      321483.016          48.750  
  26440948.870     -175057.672          45.500  
  25327669.980     -189550.051          42.750  
  25865272.010     -522734.207          46.500  
  23099748.370     -110903.211          49.500  
  26678035.260      177610.336          40.750  
  22980000.000      143172.684          48.500  
  24520698.470      564565.340          47.000  
 16 09 28 13 59 45.4000000  0  9G14G22G28G32G 8G11G17G 1G 3         
  24668320.850      182161.484          46.500  
  23533180.140      321851.914          47.750  
  26441019.870     -175267.199          46.250  
  25327743.990     -189779.887          40.750  
  25865415.730     -523335.504          46.250  
  23099806.370     -111045.461          44.000  
  26677929.340      178321.602          42.000  
  22980000.000      143323.156          46.500  
  24520611.930      565183.555          49.250  
 16 09 28 13 59 45.6000000  0  9G14G22G28G32G 8G11G17G 1G 3         
  24668310.350      182349.691          43.750  
  23533137.800      322219.648          48.500  
  26441089.130     -175477.910          48.000  
  25327816.900     -190010.949          43.500  
  25865560.290     -523937.969          46.750  
  23099859.840     -111188.895          44.000  
  26677823.310      179031.672          43.000  
  22980000.000      143472.477          47.500  
  24520524.400      565800.598          46.750  
 16 09 28 13 59 45.8000000  0  9G14G22G28G32G 8G11G17G 1G 3         
  24668305.080      182537.320          47.500  
  23533097.910      322586.812          48.250  
  26441159.350     -175689.121          47.750  
  25327886.210     -190242.559          39.000  
  25865703.590     -524540.996          41.500  
  23099917.580     -111332.871          48.000  
  26677716.530      179741.199          46.000  
  22980000.000      143621.227          52.500  
  24520437.550      566417.113          49.500  
 16 09 28 13 59 46.0000000  0  9G14G22G28G32G 8G11G17G 1G 3         
  24668297.820      182724.609          45.000  
  23533058.060      322953.633          49.250  
  26441228.330     -175900.762          50.250  
  25327956.180     -190474.504          45.250  
  25865847.710     -525144.293          45.000  
  23099972.920     -111477.238          46.500  
  26677608.250      180450.414          45.750  
  22980000.000      143769.629          50.750  
  24520349.500      567033.250          49.750  
 16 09 28 13 59 46.2000000  0  9G14G22G28G32G 8G11G17G 1G 3         
  24668289.950      182908.469          45.250  
  23533017.400      323317.055          49.250  
  26441298.730     -176115.773          41.750  
  25328027.830     -190709.891          42.750  
  25865992.870     -525751.047          41.750  
  23100030.220     -111624.984          46.750  
  26677501.600      181156.168          43.250  
  22980000.000      143914.598          49.250  
  24520261.440      567646.016          47.250  
 16 09 28 13 59 46.4000000  0  9G14G22G28G32G 8G11G17G 1G 3         
  24668282.080      183093.129          44.250  
  23532975.470      323681.281          49.750  
  26441365.900     -176330.027          46.000  
  25328096.690     -190944.461          45.750  
  25866135.610     -526356.980          44.750  
  23100083.200     -111771.941          44.750  
  26677394.970      181862.695          43.000  
  22980000.000      144060.371          48.500  
  24520168.170      568259.555          46.750  
 16 09 28 13 59 46.6000000  0  9G14G22G28G32G 8G11G17G 1G 3         
  24668276.300      183278.434          40.750  
  23532932.680      324046.168          46.250  
  26441429.750     -176543.559          49.750  
  25328167.260     -191178.387          47.250  
  25866278.300     -526962.203          47.500  
  23100139.710     -111918.277          48.500  
  26677288.580      182569.984          45.500  
  22980000.000      144206.836          50.500  
  24520076.940      568873.773          48.000  
 16 09 28 13 59 46.8000000  0  9G14G22G28G32G 8G11G17G 1G 3         
  24668268.950      183465.309          44.000  
  23532887.590      324412.617          42.250  
  26441495.480     -176755.562          46.250  
  25328238.720     -191410.758          41.500  
  25866422.210     -527565.875          40.500  
  23100195.280     -112063.012          43.500  
  26677184.420      183278.766          40.500  
  22980000.000      144354.832          47.500  
  24519988.190      569489.566          45.750  
 16 09 28 13 59 47.0000000  0  9G14G22G28G32G 8G11G17G 1G 3         
  24668263.540      183654.457          52.500  
  23532845.550      324781.309          48.250  
  26441565.930     -176965.305          46.250  
  25328314.850     -191640.863          47.750  
  25866565.560     -528167.332          45.500  
  23100253.600     -112205.516          49.250  
  26677078.380      183989.859          45.500  
  22980000.000      144505.098          50.000  
  24519899.320      570107.598          49.250  
 16 09 28 13 59 47.2000000  0  9G14G22G28G32G 8G11G17G 1G 3         
  24668254.580      183844.984          43.500  
  23532808.690      325151.418          45.250  
  26441636.270     -177173.617          47.750  
  25328391.830     -191869.539          43.000  
  25866709.830     -528767.340          44.750  
  23100309.200     -112346.574          47.500  
  26676971.720      184702.395          42.500  
  22980000.000      144656.797          43.750  
  24519811.890      570727.070          50.250  
 16 09 28 13 59 47.4000000  0  9G14G22G28G32G 8G11G17G 1G 3         
  24668247.210      184035.645          42.500  
  23532768.820      325521.676          44.250  
  26441706.940     -177381.840          44.500  
  25328466.720     -192098.094          44.250  
  25866852.660     -529367.211          44.000  
  23100365.300     -112487.559          48.000  
  26676865.100      185414.996          41.750  
  22980000.000      144808.594          48.750  
  24519723.780      571346.648          44.000  
 16 09 28 13 59 47.6000000  0  9G14G22G28G32G 8G11G17G 1G 3         
  24668240.530      184225.184          40.750  
  23532728.820      325890.797          50.000  
  26441777.410     -177591.148          44.250  
  25328541.620     -192327.805          44.750  
  25866996.600     -529968.168          49.750  
  23100419.080     -112629.645          45.250  
  26676759.610      186126.500          40.500  
  22980000.000      144959.281          47.250  
  24519636.430      571965.121          46.750  
 16 09 28 13 59 47.8000000  0  9G14G22G28G32G 8G11G17G 1G 3         
  24668234.000      184415.664          43.750  
  23532685.490      326260.918          50.500  
  26441845.990     -177799.480          46.000  
  25328615.470     -192556.500          44.000  
  25867136.590     -530568.145          46.000  
  23100475.030     -112770.770          50.250  
  26676652.030      186839.039          40.000  
  22980000.000      145110.969          49.750  
  24519547.220      572584.598          53.500  
 16 09 28 13 59 48.0000000  0  9G14G22G28G32G 8G11G17G 1G 3         
  24668227.300      184606.184          39.750  
  23532642.460      326631.055          48.500  
  26441913.690     -178007.801          42.750  
  25328687.140     -192785.254          37.750  
  25867278.810     -531168.109          42.500  
  23100530.140     -112911.867          49.750  
  26676545.360      187551.574          38.000  
  22980000.000      145262.660          49.000  
  24519458.840      573204.078          48.250  
 16 09 28 13 59 48.2000000  0  9G14G22G28G32G 8G11G17G 1G 3         
  24668222.850      184795.031          46.000  
  23532601.300      326999.539          43.000  
  26441980.930     -178217.758          43.750  
  25328757.010     -193015.574          42.750  
